[
    {"id": "KTLX", "name": "Oklahoma City", "lat": 35.3331, "lon": -97.2778, "state": "OK"},
    {"id": "KFWS", "name": "Dallas/Fort Worth", "lat": 32.5731, "lon": -97.3031, "state": "TX"},
    {"id": "KFDR", "name": "Frederick", "lat": 34.3622, "lon": -98.9764, "state": "OK"},
    {"id": "KINX", "name": "Tulsa", "lat": 36.1750, "lon": -95.5636, "state": "OK"},
    {"id": "KVNX", "name": "Vance AFB", "lat": 36.7408, "lon": -98.1275, "state": "OK"},
    {"id": "KICT", "name": "Wichita", "lat": 37.6547, "lon": -97.4428, "state": "KS"},
    {"id": "KDDC", "name": "Dodge City", "lat": 37.7608, "lon": -99.9686, "state": "KS"},
    {"id": "KLZK", "name": "Little Rock", "lat": 34.8364, "lon": -92.2622, "state": "AR"},
    {"id": "KAMA", "name": "Amarillo", "lat": 35.2331, "lon": -101.7092, "state": "TX"},
    {"id": "KLBB", "name": "Lubbock", "lat": 33.6542, "lon": -101.8142, "state": "TX"},
    {"id": "KMAF", "name": "Midland/Odessa", "lat": 31.9433, "lon": -102.1894, "state": "TX"},
    {"id": "KSHV", "name": "Shreveport", "lat": 32.4508, "lon": -93.8414, "state": "LA"},
    {"id": "KLIX", "name": "New Orleans", "lat": 30.3367, "lon": -89.8256, "state": "LA"},
    {"id": "KBMX", "name": "Birmingham", "lat": 33.1722, "lon": -86.7697, "state": "AL"},
    {"id": "KHPX", "name": "Fort Campbell", "lat": 36.7372, "lon": -87.2850, "state": "KY"},
    {"id": "KLSX", "name": "St. Louis", "lat": 38.6986, "lon": -90.6828, "state": "MO"},
    {"id": "KEAX", "name": "Kansas City", "lat": 38.8103, "lon": -94.2644, "state": "MO"},
    {"id": "KDMX", "name": "Des Moines", "lat": 41.7311, "lon": -93.7228, "state": "IA"},
    {"id": "KLOT", "name": "Chicago", "lat": 41.6044, "lon": -88.0847, "state": "IL"},
    {"id": "KDTX", "name": "Detroit", "lat": 42.6997, "lon": -83.4714, "state": "MI"},
    {"id": "KILN", "name": "Cincinnati", "lat": 39.4203, "lon": -83.8217, "state": "OH"},
    {"id": "KPBZ", "name": "Pittsburgh", "lat": 40.5317, "lon": -80.2181, "state": "PA"},
    {"id": "KOKX", "name": "New York City", "lat": 40.8656, "lon": -72.8639, "state": "NY"},
    {"id": "KBOX", "name": "Boston", "lat": 41.9558, "lon": -71.1369, "state": "MA"},
    {"id": "KFCX", "name": "Blacksburg", "lat": 37.0242, "lon": -80.2742, "state": "VA"},
    {"id": "KMHX", "name": "Morehead City", "lat": 34.7761, "lon": -76.8764, "state": "NC"},
    {"id": "KFFC", "name": "Atlanta", "lat": 33.3636, "lon": -84.5658, "state": "GA"},
    {"id": "KTBW", "name": "Tampa Bay", "lat": 27.7056, "lon": -82.4017, "state": "FL"},
    {"id": "KAMX", "name": "Miami", "lat": 25.6111, "lon": -80.4128, "state": "FL"},
    {"id": "KMPX", "name": "Minneapolis", "lat": 44.8489, "lon": -93.5653, "state": "MN"},
    {"id": "KABR", "name": "Aberdeen", "lat": 45.4558, "lon": -98.4131, "state": "SD"},
    {"id": "KUDX", "name": "Rapid City", "lat": 44.1253, "lon": -102.8297, "state": "SD"},
    {"id": "KBIS", "name": "Bismarck", "lat": 46.7708, "lon": -100.7606, "state": "ND"},
    {"id": "KGGW", "name": "Glasgow", "lat": 48.2064, "lon": -106.6253, "state": "MT"},
    {"id": "KRIW", "name": "Riverton", "lat": 43.0661, "lon": -108.4772, "state": "WY"},
    {"id": "KFTG", "name": "Denver", "lat": 39.7867, "lon": -104.5458, "state": "CO"},
    {"id": "KABX", "name": "Albuquerque", "lat": 35.1497, "lon": -106.8239, "state": "NM"},
    {"id": "KIWA", "name": "Phoenix", "lat": 33.2892, "lon": -111.6700, "state": "AZ"},
    {"id": "KESX", "name": "Las Vegas", "lat": 35.7011, "lon": -114.8917, "state": "NV"},
    {"id": "KVBX", "name": "Vandenberg", "lat": 34.8383, "lon": -120.3978, "state": "CA"},
    {"id": "KMUX", "name": "San Francisco", "lat": 37.1553, "lon": -121.8983, "state": "CA"},
    {"id": "KATX", "name": "Seattle", "lat": 48.1947, "lon": -122.4958, "state": "WA"},
    {"id": "KRTX", "name": "Portland", "lat": 45.7150, "lon": -122.9650, "state": "OR"},
    {"id": "KCBX", "name": "Boise", "lat": 43.4908, "lon": -116.2356, "state": "ID"},
    {"id": "KEWX", "name": "San Antonio", "lat": 29.7039, "lon": -98.0283, "state": "TX"},
    {"id": "KHGX", "name": "Houston", "lat": 29.4719, "lon": -95.0792, "state": "TX"},
    {"id": "KCRP", "name": "Corpus Christi", "lat": 27.7842, "lon": -97.5111, "state": "TX"},
    {"id": "KBRO", "name": "Brownsville", "lat": 25.9161, "lon": -97.4189, "state": "TX"},
    {"id": "KSGF", "name": "Springfield", "lat": 37.2353, "lon": -93.4006, "state": "MO"},
    {"id": "KGLD", "name": "Goodland", "lat": 39.3669, "lon": -101.7003, "state": "KS"}
]
